[
  {
    "country": "SUISSE",
    "region": "Suisse Romande",
    "city": "GENÈVE",
    "hospital": "Hôpitaux Universitaires de Genève HUG",
    "name": "Consultation des hémoglobinopathies",
    "name_en": "Haemoglobinopathy Clinic",
    "address": "Service d'hématologie Département des Spécialités de Médecine (DSM) Hôpitaux Universitaires de Genève HUG Rue Gabrielle-Perret-Gentil 4 1205 GENÈVE SUISSE",
    "consultation_managers": ["Dr Kaveh SAMII"],
    "phones": ["0041 (0)22 372 39 39"],
    "for_children": false,
    "for_adults": true,
    "specialized_consultation": true,
    "officially_designated": false,
    "ern_member": false,
    "website": "https://www.hug-ge.ch/consultation/hematologie",
    "location": {
      "type": "Point",
      "coordinates": [6.1490487, 46.19331469999999]
    },
    "meta": {
      "place": {
        "formattedAddress": "Rue Gabrielle-Perret-Gentil 4, 1205 Genève, Switzerland",
        "latitude": 46.19331469999999,
        "longitude": 6.1490487,
        "extra": {
          "googlePlaceId": "ChIJbcOgE9J6jEcRQcQIwduaFnE",
          "confidence": 1,
          "premise": null,
          "subpremise": null,
          "neighborhood": "Centre-Plainpalais-Acacias",
          "establishment": null
        },
        "administrativeLevels": {
          "level2long": "Genève",
          "level2short": "Genève",
          "level1long": "Genève",
          "level1short": "GE"
        },
        "streetNumber": "4",
        "streetName": "Rue Gabrielle-Perret-Gentil",
        "city": "Genève",
        "country": "Switzerland",
        "countryCode": "CH",
        "zipcode": "1205",
        "provider": "google"
      }
    }
  },
  {
    "country": "SUISSE",
    "region": "Suisse Romande",
    "city": "LAUSANNE",
    "hospital": "Centre Hospitalier Universitaire Vaudois CHUV",
    "name": "Consultation de l'hypogonadisme hypogonadotrope congénital et du syndrome de Turner",
    "name_en": "Congenital hypogonadotropic hypogonadism and Turner syndrome clinic",
    "address": "Endocrinology, Diabetes, & Metabolism Service Centre Hospitalier Universitaire Vaudois CHUV Chemin de Mont-Paisible 18 1011 LAUSANNE SUISSE",
    "consultation_managers": ["Pr Nelly PITTELOUD"],
    "phones": ["0041 (0)21 314 06 00"],
    "for_children": true,
    "for_adults": true,
    "specialized_consultation": true,
    "officially_designated": false,
    "ern_member": false,
    "website": "http://www.chuv.ch/edm/edm_home.htm",
    "location": { "type": "Point", "coordinates": [6.6424293, 46.5249174] },
    "meta": {
      "place": {
        "formattedAddress": "Rue du Bugnon 46, 1011 Lausanne, Switzerland",
        "latitude": 46.5249174,
        "longitude": 6.6424293,
        "extra": {
          "googlePlaceId": "ChIJQ9-gP0gujEcRObHmKIVW-T8",
          "confidence": 1,
          "premise": null,
          "subpremise": null,
          "neighborhood": "Lausanne",
          "establishment": null
        },
        "administrativeLevels": {
          "level2long": "Lausanne",
          "level2short": "Lausanne",
          "level1long": "Vaud",
          "level1short": "VD"
        },
        "streetNumber": "46",
        "streetName": "Rue du Bugnon",
        "city": "Lausanne",
        "country": "Switzerland",
        "countryCode": "CH",
        "zipcode": "1011",
        "provider": "google"
      }
    }
  },
  {
    "country": "SUISSE",
    "region": "Suisse Alémanique",
    "city": "ZÜRICH",
    "hospital": "Universitäts - Kinderspital Zürich - Eleonorenstiftung",
    "name": "Sprechstunde für Skelettdysplasie",
    "name_en": "Skeletal dysplasia clinic",
    "address": "Abteilung für Stoffwechselkrankheiten Universitäts - Kinderspital Zürich - Eleonorenstiftung Steinwiesstrasse 75 8032 ZÜRICH SUISSE",
    "consultation_managers": [
      "Pr Matthias BAUMGARTNER",
      "Dr Marianne ROHRBACH"
    ],
    "phones": ["0041 (0)44 266 73 10"],
    "for_children": true,
    "for_adults": true,
    "specialized_consultation": true,
    "officially_designated": true,
    "ern_member": false,
    "website": "https://www.kispi.uzh.ch/de/patienten-und-angehoerige/fachbereiche/stoffwechselkrankheiten/Seiten/default.aspx",
    "location": { "type": "Point", "coordinates": [8.5577996, 47.3719079] },
    "meta": {
      "place": {
        "formattedAddress": "Steinwiesstrasse 75, 8032 Zürich, Switzerland",
        "latitude": 47.3719079,
        "longitude": 8.5577996,
        "extra": {
          "googlePlaceId": "ChIJgdHzErGgmkcRUl5rrdAfcpI",
          "confidence": 1,
          "premise": null,
          "subpremise": null,
          "neighborhood": "Kreis 7",
          "establishment": null
        },
        "administrativeLevels": {
          "level2long": "Zürich",
          "level2short": "Zürich",
          "level1long": "Zürich",
          "level1short": "ZH"
        },
        "streetNumber": "75",
        "streetName": "Steinwiesstrasse",
        "city": "Zürich",
        "country": "Switzerland",
        "countryCode": "CH",
        "zipcode": "8032",
        "provider": "google"
      }
    }
  },
  {
    "country": "SUISSE",
    "region": "Suisse Romande",
    "city": "LAUSANNE",
    "hospital": "Centre Hospitalier Universitaire Vaudois CHUV",
    "name": "Consultation d'hématologie bénigne, d'hématologie maligne et hémostase",
    "name_en": "Benign and malignant hematology and hemostasis clinics",
    "address": "Service d'hématologie et Laboratoire Central d'Hématologie Centre Hospitalier Universitaire Vaudois CHUV Rue du Bugnon 46 1011 LAUSANNE SUISSE",
    "consultation_managers": ["Pr Michel DUCHOSAL"],
    "phones": ["0041 (0)21 314 42 22"],
    "for_children": false,
    "for_adults": true,
    "specialized_consultation": true,
    "officially_designated": false,
    "ern_member": false,
    "website": "https://www.chuv.ch/fr/hematologie/hem-home/",
    "location": { "type": "Point", "coordinates": [6.6424293, 46.5249174] },
    "meta": {
      "place": {
        "formattedAddress": "Rue du Bugnon 46, 1011 Lausanne, Switzerland",
        "latitude": 46.5249174,
        "longitude": 6.6424293,
        "extra": {
          "googlePlaceId": "ChIJQ9-gP0gujEcRObHmKIVW-T8",
          "confidence": 1,
          "premise": null,
          "subpremise": null,
          "neighborhood": "Lausanne",
          "establishment": null
        },
        "administrativeLevels": {
          "level2long": "Lausanne",
          "level2short": "Lausanne",
          "level1long": "Vaud",
          "level1short": "VD"
        },
        "streetNumber": "46",
        "streetName": "Rue du Bugnon",
        "city": "Lausanne",
        "country": "Switzerland",
        "countryCode": "CH",
        "zipcode": "1011",
        "provider": "google"
      }
    }
  },
  {
    "country": "SUISSE",
    "region": "Suisse Romande",
    "city": "LAUSANNE",
    "hospital": "Hôpital Nestlé - CHUV",
    "name": "Consultation de médecine génétique",
    "name_en": "Genetic medicine clinic",
    "address": "Service de médecine génétique Hôpital Nestlé - CHUV Avenue Pierre Decker 5 1011 LAUSANNE SUISSE",
    "consultation_managers": ["Pr Andrea SUPERTI-FURGA"],
    "phones": ["0041 (0)21 314 32 00"],
    "for_children": true,
    "for_adults": true,
    "specialized_consultation": true,
    "officially_designated": false,
    "ern_member": false,
    "website": "http://www.chuv.ch/fr/laboratoires/dl-home/le-departement-en-bref/unites/service-de-medecine-genetique/",
    "location": {
      "type": "Point",
      "coordinates": [6.6421259, 46.52726190000001]
    },
    "meta": {
      "place": {
        "formattedAddress": "Avenue de la Sallaz 2, 1005 Lausanne, Switzerland",
        "latitude": 46.52726190000001,
        "longitude": 6.6421259,
        "extra": {
          "googlePlaceId": "ChIJE3usFjgujEcROrELLbbDs1A",
          "confidence": 1,
          "premise": null,
          "subpremise": null,
          "neighborhood": "Lausanne",
          "establishment": null
        },
        "administrativeLevels": {
          "level2long": "Lausanne",
          "level2short": "Lausanne",
          "level1long": "Vaud",
          "level1short": "VD"
        },
        "streetNumber": "2",
        "streetName": "Avenue de la Sallaz",
        "city": "Lausanne",
        "country": "Switzerland",
        "countryCode": "CH",
        "zipcode": "1005",
        "provider": "google"
      }
    }
  },
  {
    "country": "SUISSE",
    "region": "Suisse Alémanique",
    "city": "ZÜRICH",
    "hospital": "Universitäts - Kinderspital Zürich - Eleonorenstiftung",
    "name": "Sprechstunde für Endokrinologie und Diabetologie",
    "name_en": "Clinic for endocrinology and diabetology",
    "address": "Endokrinologie/Diabetologie Universitäts - Kinderspital Zürich - Eleonorenstiftung Steinwiesstrasse 75 8032 ZÜRICH SUISSE",
    "consultation_managers": ["Pr Daniel KONRAD"],
    "phones": ["0041 (0)44 266 73 09"],
    "for_children": true,
    "for_adults": false,
    "specialized_consultation": true,
    "officially_designated": false,
    "ern_member": false,
    "website": "https://www.kispi.uzh.ch/de/patienten-und-angehoerige/fachbereiche/endokrinologie-diabetologie/Seiten/default.aspx",
    "location": { "type": "Point", "coordinates": [8.5577996, 47.3719079] },
    "meta": {
      "place": {
        "formattedAddress": "Steinwiesstrasse 75, 8032 Zürich, Switzerland",
        "latitude": 47.3719079,
        "longitude": 8.5577996,
        "extra": {
          "googlePlaceId": "ChIJgdHzErGgmkcRUl5rrdAfcpI",
          "confidence": 1,
          "premise": null,
          "subpremise": null,
          "neighborhood": "Kreis 7",
          "establishment": null
        },
        "administrativeLevels": {
          "level2long": "Zürich",
          "level2short": "Zürich",
          "level1long": "Zürich",
          "level1short": "ZH"
        },
        "streetNumber": "75",
        "streetName": "Steinwiesstrasse",
        "city": "Zürich",
        "country": "Switzerland",
        "countryCode": "CH",
        "zipcode": "8032",
        "provider": "google"
      }
    }
  },
  {
    "country": "SUISSE",
    "region": "Suisse Romande",
    "city": "GENÈVE",
    "hospital": "Hôpital des Enfants - Hôpitaux Universitaires de Genève HUG",
    "name": "Consultation pédiatrique d'endocrinologie et de diabètes rares et monogéniques",
    "name_en": "Paediatric endocrinology and rare and monogenic diabetes clinic",
    "address": "Unité d'endocrinologie et de diabétologie pédiatriques Département de la Femme, de l'Enfant et de l'Adolescent - DFEA Hôpital des Enfants - Hôpitaux Universitaires de Genève HUG Rue Willy Donzé 6 1205 GENÈVE SUISSE",
    "consultation_managers": ["Pr Valérie SCHWITZGEBEL"],
    "phones": ["0041 (0)22 372 45 90"],
    "for_children": true,
    "for_adults": false,
    "specialized_consultation": true,
    "officially_designated": false,
    "ern_member": false,
    "website": "https://www.hug-ge.ch/developpement-croissance/unite-endocrinologie-diabetologie-pediatriques",
    "location": {
      "type": "Point",
      "coordinates": [6.1490487, 46.19331469999999]
    },
    "meta": {
      "place": {
        "formattedAddress": "Rue Gabrielle-Perret-Gentil 4, 1205 Genève, Switzerland",
        "latitude": 46.19331469999999,
        "longitude": 6.1490487,
        "extra": {
          "googlePlaceId": "ChIJbcOgE9J6jEcRQcQIwduaFnE",
          "confidence": 1,
          "premise": null,
          "subpremise": null,
          "neighborhood": "Centre-Plainpalais-Acacias",
          "establishment": null
        },
        "administrativeLevels": {
          "level2long": "Genève",
          "level2short": "Genève",
          "level1long": "Genève",
          "level1short": "GE"
        },
        "streetNumber": "4",
        "streetName": "Rue Gabrielle-Perret-Gentil",
        "city": "Genève",
        "country": "Switzerland",
        "countryCode": "CH",
        "zipcode": "1205",
        "provider": "google"
      }
    }
  },
  {
    "country": "SUISSE",
    "region": "Suisse Romande",
    "city": "LAUSANNE",
    "hospital": "Centre Hospitalier Universitaire Vaudois CHUV - Hôpital Beaumont -",
    "name": "Consultation des dysplasies osseuses constitutionnelles",
    "name_en": "Constitutional bone diseases clinic",
    "address": "CMM - Centre des Maladies Moléculaires Service de médecine génétique Centre Hospitalier Universitaire Vaudois CHUV - Hôpital Beaumont - Avenue de Beaumont 29 1011 LAUSANNE SUISSE",
    "consultation_managers": ["Pr Andrea SUPERTI-FURGA"],
    "phones": ["0041 (0)21 314 34 80"],
    "for_children": true,
    "for_adults": true,
    "specialized_consultation": true,
    "officially_designated": true,
    "ern_member": false,
    "website": "https://www.chuv.ch/fr/dfme/dfme-home/enfants-famille/specialites-medicales/centre-des-maladies-moleculaires/",
    "location": { "type": "Point", "coordinates": [6.6424293, 46.5249174] },
    "meta": {
      "place": {
        "formattedAddress": "Rue du Bugnon 46, 1011 Lausanne, Switzerland",
        "latitude": 46.5249174,
        "longitude": 6.6424293,
        "extra": {
          "googlePlaceId": "ChIJQ9-gP0gujEcRObHmKIVW-T8",
          "confidence": 1,
          "premise": null,
          "subpremise": null,
          "neighborhood": "Lausanne",
          "establishment": null
        },
        "administrativeLevels": {
          "level2long": "Lausanne",
          "level2short": "Lausanne",
          "level1long": "Vaud",
          "level1short": "VD"
        },
        "streetNumber": "46",
        "streetName": "Rue du Bugnon",
        "city": "Lausanne",
        "country": "Switzerland",
        "countryCode": "CH",
        "zipcode": "1011",
        "provider": "google"
      }
    }
  },
  {
    "country": "SUISSE",
    "region": "Suisse Alémanique",
    "city": "ZÜRICH",
    "hospital": "UniversitätsSpital Zürich",
    "name": "Sprechstunde für seltene systemische Krankheiten, Sklerodermie und inflammatorische Myopathien",
    "name_en": "Rare systemic diseases, scleroderma and inflammatory myopathy clinic",
    "address": "Klinik für Rheumatologie UniversitätsSpital Zürich Rämistrasse 100 8091 ZÜRICH SUISSE",
    "consultation_managers": ["Pr Oliver DISTLER", "Dr Britta MAURER"],
    "phones": ["0041 (0)44 255 26 87"],
    "for_children": false,
    "for_adults": true,
    "specialized_consultation": true,
    "officially_designated": false,
    "ern_member": false,
    "website": "http://www.rheumatologie.usz.ch/unser-angebot/Seiten/default.aspx",
    "location": { "type": "Point", "coordinates": [8.552074, 47.375841] },
    "meta": {
      "place": {
        "formattedAddress": "UniversitätsSpital Zürich, Gloriastrasse 25, 8091 Zürich, Switzerland",
        "latitude": 47.375841,
        "longitude": 8.552074,
        "extra": {
          "googlePlaceId": "ChIJ1UT9gKWgmkcR40_MnYPL3ZQ",
          "confidence": 0.7,
          "premise": null,
          "subpremise": null,
          "neighborhood": "Zürich",
          "establishment": null
        },
        "administrativeLevels": {
          "level2long": "Zürich",
          "level2short": "Zürich",
          "level1long": "Zürich",
          "level1short": "ZH"
        },
        "city": "Zürich",
        "country": "Switzerland",
        "countryCode": "CH",
        "zipcode": "8091",
        "provider": "google"
      }
    }
  },
  {
    "country": "SUISSE",
    "region": "Suisse Romande",
    "city": "LAUSANNE",
    "hospital": "Centre Hospitalier Universitaire Vaudois CHUV",
    "name": "Consultation d'immunologie et allergie",
    "name_en": "Immunology and allergy clinic",
    "address": "Service d'immunologie et allergie Centre Hospitalier Universitaire Vaudois CHUV Rue du Bugnon 46 1011 LAUSANNE SUISSE",
    "consultation_managers": ["Pr François SPERTINI"],
    "phones": ["0041 (0)21 314 07 90"],
    "for_children": false,
    "for_adults": true,
    "specialized_consultation": true,
    "officially_designated": false,
    "ern_member": false,
    "website": "https://www.chuv.ch/fr/ial/ial-home/",
    "location": { "type": "Point", "coordinates": [6.6424293, 46.5249174] },
    "meta": {
      "place": {
        "formattedAddress": "Rue du Bugnon 46, 1011 Lausanne, Switzerland",
        "latitude": 46.5249174,
        "longitude": 6.6424293,
        "extra": {
          "googlePlaceId": "ChIJQ9-gP0gujEcRObHmKIVW-T8",
          "confidence": 1,
          "premise": null,
          "subpremise": null,
          "neighborhood": "Lausanne",
          "establishment": null
        },
        "administrativeLevels": {
          "level2long": "Lausanne",
          "level2short": "Lausanne",
          "level1long": "Vaud",
          "level1short": "VD"
        },
        "streetNumber": "46",
        "streetName": "Rue du Bugnon",
        "city": "Lausanne",
        "country": "Switzerland",
        "countryCode": "CH",
        "zipcode": "1011",
        "provider": "google"
      }
    }
  }
]
